City_ID,City,Country,Lat,Lng,Max Temp,Humidity,Cloudiness,Wind Speed,Current Description
0,Arraial Do Cabo,BR,-22.9661,-42.0278,73.78,78,100,18.21,overcast clouds
1,Tuktoyaktuk,CA,69.4541,-133.0374,3.2,78,40,20.71,scattered clouds
2,Whitianga,NZ,-36.8333,175.7,63.64,95,100,17.98,light rain
3,Souillac,MU,-20.5167,57.5167,75.58,78,40,9.22,scattered clouds
4,Barrow,US,71.2906,-156.7887,10.42,67,100,14.97,overcast clouds
5,Namibe,AO,-15.1961,12.1522,66.97,78,98,4.12,overcast clouds
6,Barpali,IN,21.2,83.5833,70.61,49,14,2.86,few clouds
7,Chuy,UY,-33.6971,-53.4616,57.51,69,0,3.65,clear sky
8,Guerande,FR,47.3291,-2.4283,33.96,95,100,10.38,overcast clouds
9,Nanortalik,GL,60.1432,-45.2371,18.01,71,32,9.31,scattered clouds
10,Shangqiu,CN,34.45,115.65,34.75,12,63,5.77,broken clouds
11,Saskylakh,RU,71.9167,114.0833,-14.53,92,47,12.73,scattered clouds
12,Magdeburg,DE,52.1667,11.6667,20.12,91,100,6.15,overcast clouds
13,Rikitea,PF,-23.1203,-134.9692,74.88,74,3,17.36,clear sky
14,Jamestown,US,42.097,-79.2353,26.19,64,0,4.61,clear sky
15,Sainte-Rose,GP,16.3324,-61.6979,75.24,83,75,0.0,broken clouds
16,Mount Gambier,AU,-37.8333,140.7667,56.43,54,93,12.1,overcast clouds
17,San Quintin,MX,30.4833,-115.95,56.12,62,0,11.95,clear sky
18,Nikolskoye,RU,59.7035,30.7861,24.69,94,98,7.49,light snow
19,Ushuaia,AR,-54.8,-68.3,42.46,75,40,14.97,scattered clouds
20,Vestmannaeyjar,IS,63.4427,-20.2734,26.73,75,94,10.45,overcast clouds
21,Pirapora,BR,-17.345,-44.9419,71.2,93,100,3.4,overcast clouds
22,Vila Velha,BR,-20.3297,-40.2925,75.15,95,100,17.27,overcast clouds
23,Saint-Leu,RE,-21.15,55.2833,75.31,73,14,3.49,few clouds
24,Mar Del Plata,AR,-38.0023,-57.5575,69.82,52,0,12.66,clear sky
25,Beberibe,BR,-4.1797,-38.1306,77.54,81,100,8.77,overcast clouds
26,Vaini,TO,-21.2,-175.2,80.76,94,75,16.11,light rain
27,Khatanga,RU,71.9667,102.5,-19.41,96,55,11.07,broken clouds
28,Butaritari,KI,3.0707,172.7902,81.23,76,79,6.33,broken clouds
29,Castro,BR,-24.7911,-50.0119,58.41,94,97,11.34,overcast clouds
30,Cape Town,ZA,-33.9258,18.4232,67.12,87,20,3.44,few clouds
31,Fortuna,US,40.5982,-124.1573,41.92,86,0,4.61,clear sky
32,Pisco,PE,-13.7,-76.2167,69.85,83,0,12.66,clear sky
33,Guerrero Negro,MX,27.9769,-114.0611,57.72,59,1,13.11,clear sky
34,Kirkwall,GB,58.9848,-2.9587,35.65,64,75,25.32,broken clouds
35,Bandarbeyla,SO,9.4942,50.8122,73.85,68,7,14.65,clear sky
36,Upernavik,GL,72.7868,-56.1549,20.3,94,100,16.51,snow
37,Bluff,NZ,-46.6,168.3333,63.81,73,41,4.05,scattered clouds
38,Albany,US,42.6001,-73.9662,27.64,76,1,14.0,clear sky
39,Cherskiy,RU,68.75,161.3,-33.05,98,100,11.45,overcast clouds
40,Kaitangata,NZ,-46.2817,169.8464,62.01,69,62,7.34,broken clouds
41,Thompson,CA,55.7435,-97.8558,5.4,100,99,1.16,overcast clouds
42,Hermanus,ZA,-34.4187,19.2345,64.8,94,39,2.01,scattered clouds
43,Hobart,AU,-42.8794,147.3294,57.06,71,75,20.71,broken clouds
44,Eureka,US,40.8021,-124.1637,43.41,89,38,1.01,scattered clouds
45,Angoche,MZ,-16.2325,39.9086,77.81,79,99,5.64,overcast clouds
46,Kiruna,SE,67.8557,20.2251,4.12,85,100,6.91,light snow
47,Pevek,RU,69.7008,170.3133,-13.63,91,100,8.66,overcast clouds
48,Alofi,NU,-19.0595,-169.9187,82.29,57,75,11.5,broken clouds
49,Naze,JP,28.3667,129.4833,61.72,60,100,17.94,overcast clouds
50,Torbay,CA,47.6666,-52.7314,41.29,95,75,29.93,moderate rain
51,Yellowknife,CA,62.456,-114.3525,3.72,85,75,6.91,broken clouds
52,West Melbourne,US,28.0717,-80.6534,70.92,93,40,12.66,moderate rain
53,Mataura,NZ,-46.1927,168.8643,63.48,49,90,5.01,overcast clouds
54,Tandlianwala,PK,31.0333,73.1333,53.42,38,0,6.53,clear sky
55,Bubaque,GW,11.2833,-15.8333,80.58,70,0,8.34,clear sky
56,Kapaa,US,22.0752,-159.319,80.58,75,4,5.01,clear sky
57,Saldanha,ZA,-33.0117,17.9442,64.45,97,47,4.03,scattered clouds
58,Yulara,AU,-25.2406,130.9889,83.97,18,100,17.72,overcast clouds
59,Labuhan,ID,-6.8844,112.2051,84.61,68,100,3.15,light rain
60,Lamar,US,33.6668,-95.5836,56.64,96,100,6.91,overcast clouds
61,San Cristobal,VE,7.7669,-72.225,69.98,97,68,2.24,broken clouds
62,Ialibu,PG,-6.2821,143.9935,65.77,86,100,2.33,overcast clouds
63,Ribeira Grande,PT,38.5167,-28.7,56.77,76,64,13.0,light rain
64,Saint-Philippe,RE,-21.3585,55.7679,72.99,82,42,10.89,scattered clouds
65,Vao,NC,-22.6667,167.4833,75.6,60,0,4.81,clear sky
66,Klaksvik,FO,62.2266,-6.589,31.12,71,100,35.25,overcast clouds
67,Busselton,AU,-33.65,115.3333,74.62,41,15,9.86,few clouds
68,Punta Arenas,CL,-53.15,-70.9167,46.51,53,40,12.66,scattered clouds
69,Narsaq,GL,60.9167,-46.05,7.07,64,9,7.58,clear sky
70,Lazaro Cardenas,MX,17.9583,-102.2,74.41,78,72,2.37,broken clouds
71,Vestmanna,FO,62.1564,-7.1664,29.32,74,75,25.32,light snow
72,Marzuq,YE,14.4,46.4667,57.96,62,21,1.83,few clouds
73,Det Udom,TH,14.906,105.0784,66.02,57,83,10.54,broken clouds
74,Mahebourg,MU,-20.4081,57.7,77.25,78,40,9.22,scattered clouds
75,Qaqortoq,GL,60.7167,-46.0333,7.9,68,6,6.11,clear sky
76,Ambilobe,MG,-13.2,49.05,71.2,79,4,2.48,clear sky
77,Katobu,ID,-4.9408,122.5276,81.82,79,100,2.86,heavy intensity rain
78,Lompoc,US,34.6391,-120.4579,51.78,73,0,5.75,clear sky
79,Hasaki,JP,35.7333,140.8333,57.6,46,0,22.21,clear sky
80,Rocha,UY,-34.4833,-54.3333,51.57,77,0,5.46,clear sky
81,Newport,GB,51.5877,-2.9984,32.54,80,100,14.7,overcast clouds
82,Magalia,US,39.8121,-121.5783,39.11,82,18,1.99,few clouds
83,Laguna,US,38.421,-121.4238,48.06,72,0,4.61,clear sky
84,Mareeba,AU,-17.0,145.4333,89.44,62,77,5.46,broken clouds
85,Chokurdakh,RU,70.6333,147.9167,-16.47,94,100,11.65,overcast clouds
86,Qaanaaq,GL,77.484,-69.3632,2.17,89,100,4.85,overcast clouds
87,Mogadishu,SO,2.0371,45.3438,78.64,77,57,13.82,broken clouds
88,Kyshtovka,RU,56.555,76.6271,-23.24,100,33,3.71,scattered clouds
89,Rudbar,AF,30.15,62.6,46.17,51,0,2.8,clear sky
90,Paracuru,BR,-3.41,-39.0306,81.1,80,52,9.28,broken clouds
91,Hofn,IS,64.2539,-15.2082,22.51,59,64,14.83,broken clouds
92,Vanimo,PG,-2.6741,141.3028,84.88,70,100,5.99,overcast clouds
93,Kisangani,CD,0.5167,25.2,64.54,99,90,0.92,overcast clouds
94,Boyolangu,ID,-8.1181,111.8935,82.38,75,100,4.05,overcast clouds
95,Vila Franca Do Campo,PT,37.7167,-25.4333,59.41,83,63,22.17,light rain
96,Faanui,PF,-16.4833,-151.75,80.28,75,100,14.92,overcast clouds
97,Petropavlovsk-Kamchatskiy,RU,53.0452,158.6483,16.39,86,100,4.47,light shower snow
98,Alamosa,US,37.4695,-105.87,21.18,58,100,8.05,overcast clouds
99,Port Elizabeth,ZA,-33.918,25.5701,68.31,92,0,12.66,light rain
100,Tura,IN,25.5198,90.2201,64.47,74,11,2.01,few clouds
101,Esperance,AU,-33.8667,121.9,66.52,53,89,16.78,overcast clouds
102,Raudeberg,NO,61.9875,5.1352,26.87,45,100,5.35,snow
103,Port Alfred,ZA,-33.5906,26.891,65.17,98,89,1.01,light rain
104,Batemans Bay,AU,-35.7167,150.1833,65.1,34,88,5.14,light rain
105,Tiksi,RU,71.6872,128.8694,-20.72,93,100,15.23,overcast clouds
106,Fort Nelson,CA,58.8053,-122.7002,6.94,95,0,4.61,clear sky
107,Totness,SR,5.8833,-56.3167,78.31,81,92,10.89,overcast clouds
108,Marsaxlokk,MT,35.8419,14.5431,67.08,82,0,5.75,clear sky
109,Puerto Ayora,EC,-0.7393,-90.3518,70.56,96,44,1.01,scattered clouds
110,Paamiut,GL,61.994,-49.6678,15.21,73,4,8.99,clear sky
111,Norman Wells,CA,65.282,-126.8329,-0.36,85,20,4.61,few clouds
112,Balagansk,RU,54.0103,103.0544,-11.04,96,24,2.48,few clouds
113,Valdivia,CL,-39.8142,-73.2459,60.89,96,100,1.3,light rain
114,Aykhal,RU,66.0,111.5,-2.27,100,100,3.44,light snow
115,Bredasdorp,ZA,-34.5322,20.0403,66.18,89,29,2.08,scattered clouds
116,Sitka,US,57.0531,-135.33,34.92,97,100,6.85,light snow
117,Saint-Augustin,CA,51.226,-58.6502,36.28,84,100,32.26,overcast clouds
118,Richards Bay,ZA,-28.783,32.0377,73.74,87,94,11.16,overcast clouds
119,Saint-Cyr-Sur-Loire,FR,47.4,0.6667,32.63,100,100,6.91,light rain
120,Manuk Mangkaw,PH,4.8,119.85,79.95,83,100,9.55,moderate rain
121,Hilo,US,19.7297,-155.09,77.25,93,90,3.0,overcast clouds
122,Ta Khmau,KH,11.4833,104.95,75.25,69,20,11.5,few clouds
123,Lata,PT,40.1629,-8.3327,56.91,94,100,5.64,overcast clouds
124,Los Llanos De Aridane,ES,28.6585,-17.9182,66.13,95,0,10.36,clear sky
125,Hamilton,US,39.1834,-84.5333,41.94,75,100,3.0,overcast clouds
126,Lodwar,KE,3.1191,35.5973,82.67,43,100,9.01,overcast clouds
127,Kumbo,CM,6.2,10.6667,58.03,39,3,4.09,clear sky
128,Papara,BR,-3.9839,-38.7273,81.0,89,49,2.98,scattered clouds
129,Bethel,US,41.3712,-73.414,34.16,70,0,3.44,clear sky
130,Mayumba,GA,-3.432,10.6554,76.33,85,100,3.04,overcast clouds
131,Ballina,AU,-28.8667,153.5667,85.01,44,58,2.1,broken clouds
132,Elk City,US,35.412,-99.4043,46.62,42,0,11.5,clear sky
133,Goderich,CA,43.7501,-81.7165,22.91,86,92,5.75,overcast clouds
134,Airai,TL,-8.9266,125.4092,76.62,50,95,1.86,overcast clouds
135,Carnarvon,AU,-24.8667,113.6333,76.23,64,0,12.62,clear sky
136,Cidreira,BR,-30.1811,-50.2056,66.81,62,0,5.75,clear sky
137,Chistogorskiy,RU,53.9835,87.3843,-7.73,100,79,1.7,broken clouds
138,Cabo San Lucas,MX,22.8909,-109.9124,72.52,74,90,1.01,overcast clouds
139,Luderitz,NA,-26.6481,15.1594,63.61,94,70,5.77,broken clouds
140,Avarua,CK,-21.2078,-159.775,80.65,74,75,21.85,light rain
141,San Ramon,US,37.7799,-121.978,50.13,75,0,5.75,clear sky
142,Peruibe,BR,-24.32,-46.9983,68.63,82,56,4.9,broken clouds
143,Killybegs,IE,54.6333,-8.45,35.24,75,3,9.42,clear sky
144,Severo-Kurilsk,RU,50.6789,156.125,35.38,86,100,39.66,overcast clouds
145,Lagoa,PT,39.05,-27.9833,58.21,69,100,28.57,light rain
146,Zhigansk,RU,66.7697,123.3711,-40.2,98,100,10.16,overcast clouds
147,Khani,GE,41.9563,42.9566,40.57,77,100,6.33,overcast clouds
148,Sorong,ID,-0.8833,131.25,83.07,72,100,3.0,overcast clouds
149,Huarmey,PE,-10.0681,-78.1522,68.88,83,100,1.7,overcast clouds
150,Kahului,US,20.8947,-156.47,77.97,80,16,10.0,few clouds
151,Iquique,CL,-20.2208,-70.1431,71.64,72,13,2.89,few clouds
152,Atuona,PF,-9.8,-139.0333,77.94,80,42,16.67,scattered clouds
153,Leningradskiy,RU,69.3833,178.4167,-9.53,78,100,10.18,overcast clouds
154,Koumac,NC,-20.5667,164.2833,81.99,66,28,6.29,scattered clouds
155,Victoria,HK,22.2855,114.1577,57.25,91,100,4.0,overcast clouds
156,Makat,KZ,47.6469,53.3463,21.94,71,6,13.42,clear sky
157,La Ronge,CA,55.1001,-105.2842,8.85,85,20,9.22,few clouds
158,Rantepao,ID,-2.9701,119.8978,70.54,96,100,1.68,overcast clouds
159,Launceston,AU,-41.45,147.1667,62.35,56,75,25.32,broken clouds
160,Batagay,RU,67.6333,134.6333,-39.51,99,96,2.75,overcast clouds
161,Bayan,CN,46.0833,127.4,0.43,76,100,14.9,overcast clouds
162,New Norfolk,AU,-42.7826,147.0587,56.71,66,90,5.99,overcast clouds
163,Lebu,CL,-37.6167,-73.65,58.73,88,89,14.67,overcast clouds
164,Ponta Do Sol,PT,32.6667,-17.1,70.72,89,97,15.23,light rain
165,Viedma,AR,-40.8135,-62.9967,63.73,56,5,13.11,clear sky
166,Lalmohan,BD,22.3384,90.7419,70.02,56,2,6.62,clear sky
167,Alexandria,EG,31.2156,29.9553,59.54,63,39,10.8,scattered clouds
168,Stephenville,US,32.2207,-98.2023,57.33,50,0,0.0,clear sky
169,Atherton,GB,53.5237,-2.4935,24.44,81,6,1.99,clear sky
170,Kodinsk,RU,58.6881,99.1844,-30.51,100,94,1.7,overcast clouds
171,Bambous Virieux,MU,-20.3428,57.7575,77.22,78,40,9.22,scattered clouds
172,Okhotsk,RU,59.3833,143.3,-18.44,79,100,18.63,overcast clouds
173,Majalgaon,IN,19.15,76.2333,71.26,81,82,4.9,broken clouds
174,Sechura,PE,-5.5569,-80.8222,69.69,76,100,5.44,overcast clouds
175,Arzgir,RU,45.3728,44.2206,40.86,90,100,10.92,overcast clouds
176,Henties Bay,NA,-22.116,14.2845,60.31,95,32,2.44,scattered clouds
177,Lorengau,PG,-2.0226,147.2712,85.21,69,99,7.25,overcast clouds
178,Sao Desiderio,BR,-12.3633,-44.9733,72.05,89,99,2.64,overcast clouds
179,Yumen,CN,40.2833,97.2,19.18,43,0,29.19,clear sky
180,Cap Malheureux,MU,-19.9842,57.6142,77.47,70,89,4.0,overcast clouds
181,Dubbo,AU,-32.25,148.6167,66.33,30,1,17.27,clear sky
182,Olafsvik,IS,64.8945,-23.7142,27.59,65,68,8.43,light snow
183,Inirida,CO,3.8653,-67.9239,72.16,96,91,1.68,overcast clouds
184,Port Lincoln,AU,-34.7333,135.8667,60.69,51,38,15.41,scattered clouds
185,Taoudenni,ML,22.6783,-3.9836,76.01,26,0,7.05,clear sky
186,Edinburg,GB,55.9521,-3.1965,30.11,88,0,1.99,clear sky
187,Tezu,IN,27.9167,96.1667,68.09,45,48,0.56,scattered clouds
188,Nemuro,JP,43.3236,145.575,33.85,51,100,11.61,overcast clouds
189,Along,IN,28.1667,94.7667,58.19,67,72,0.89,broken clouds
190,Svetlaya,RU,46.5389,138.3297,6.84,53,85,10.18,overcast clouds
191,Ilulissat,GL,69.2167,-51.1,14.49,92,100,6.8,overcast clouds
192,Anloga,GH,5.7947,0.8973,80.4,82,95,8.5,overcast clouds
193,Sambava,MG,-14.2667,50.1667,72.75,84,0,8.59,clear sky
194,East London,ZA,-33.0153,27.9116,70.81,93,52,14.0,broken clouds
195,Suntar,RU,62.1444,117.6319,-12.08,97,100,6.44,overcast clouds
196,Chiredzi,ZW,-21.05,31.6667,71.01,80,32,2.62,scattered clouds
197,Asau,RO,46.4333,26.4,20.32,78,34,3.8,scattered clouds
198,Mehran,IR,33.1222,46.1646,61.68,59,94,7.85,overcast clouds
199,Bontang,ID,0.1333,117.5,76.66,90,100,3.56,light rain
200,Terrace,CA,54.5163,-128.6035,28.31,86,100,0.0,overcast clouds
201,Sahaswan,IN,28.0833,78.75,56.55,41,0,8.59,clear sky
202,Talnakh,RU,69.4865,88.3972,-18.8,98,100,10.16,overcast clouds
203,Nador,MA,35.174,-2.9287,73.47,64,0,5.75,clear sky
204,Micheweni,TZ,-4.9667,39.8333,78.39,82,8,5.01,light rain
205,Margate,GB,51.3813,1.3862,36.7,69,100,1.99,light rain
206,Isangel,VU,-19.55,169.2667,82.53,56,1,6.64,clear sky
207,San Patricio,US,28.017,-97.5169,75.29,81,95,11.74,overcast clouds
208,Komsomolskiy,UZ,40.4272,71.7189,23.72,93,100,2.3,fog
209,Nishihara,JP,26.1842,127.7558,63.68,68,75,13.8,broken clouds
210,Camana,PE,-16.6228,-72.7111,71.28,82,100,3.62,overcast clouds
211,Sao Joao Do Paraiso,BR,-15.3136,-42.0144,69.19,91,100,8.97,light rain
212,Umarkot,PK,25.3616,69.7362,61.75,32,0,9.91,clear sky
213,Okha,RU,53.5739,142.9478,15.76,88,100,0.94,overcast clouds
214,Zunyi,CN,27.6867,106.9072,43.02,35,80,3.78,broken clouds
215,Constitucion,CL,-35.3333,-72.4167,57.51,88,1,12.88,clear sky
216,Husavik,IS,66.0449,-17.3389,13.26,77,100,10.8,overcast clouds
217,Melville,US,40.7934,-73.4151,35.55,66,0,3.0,clear sky
218,Dikson,RU,73.5069,80.5464,8.42,91,100,18.63,overcast clouds
219,Salinopolis,BR,-0.6136,-47.3561,78.76,82,33,9.19,scattered clouds
220,Kailua,US,21.4022,-157.7394,80.58,62,40,11.5,scattered clouds
221,Anadyr,RU,64.75,177.4833,0.48,84,100,22.37,heavy shower snow
222,Port Blair,IN,11.6667,92.75,82.44,74,75,5.75,broken clouds
223,Naruto,JP,34.1833,134.6167,47.44,61,75,24.16,broken clouds
224,Ahipara,NZ,-35.1667,173.1667,65.82,97,100,6.82,overcast clouds
225,Marau,BR,-28.4492,-52.2,55.85,75,0,4.94,clear sky
226,Candelaria,PH,13.9311,121.4233,82.38,73,89,7.81,overcast clouds
227,Pochutla,MX,15.7432,-96.4661,76.82,87,89,3.94,overcast clouds
228,Provideniya,RU,64.3833,-173.3,6.91,61,0,4.47,clear sky
229,Severo-Yeniseyskiy,RU,60.3725,93.0408,-32.98,99,26,2.98,scattered clouds
230,Chabahar,IR,25.2919,60.643,70.45,48,0,5.86,clear sky
231,Gwadar,PK,25.1216,62.3254,70.83,38,0,6.42,clear sky
232,Bengkulu,ID,-3.8004,102.2655,76.35,88,99,5.21,overcast clouds
233,Daniel Flores,CR,9.3355,-83.6694,68.77,92,50,3.76,scattered clouds
234,Banon,ES,40.8382,-1.1909,54.66,94,0,3.44,clear sky
235,Yar-Sale,RU,66.8333,70.8333,0.88,88,100,15.23,overcast clouds
236,Kuala Terengganu,MY,5.3302,103.1408,82.98,83,40,9.22,scattered clouds
237,Sarkand,KZ,45.41,79.9186,22.82,83,100,2.51,overcast clouds
238,Tasiilaq,GL,65.6145,-37.6368,8.37,70,0,10.09,clear sky
239,Te Anau,NZ,-45.4167,167.7167,63.34,72,71,5.55,broken clouds
240,Mao,ES,39.8885,4.2658,63.16,100,40,12.66,scattered clouds
241,Kavieng,PG,-2.5744,150.7967,83.25,72,98,4.79,overcast clouds
242,Sisian,AM,39.5256,46.0251,32.09,92,56,5.99,broken clouds
243,Haines Junction,CA,60.7522,-137.5108,3.15,85,89,4.61,overcast clouds
244,Salinas,US,36.6777,-121.6555,51.08,72,18,1.3,few clouds
245,Madang,PG,-5.2246,145.7966,86.09,68,95,5.59,overcast clouds
246,Katsuura,JP,35.1333,140.3,60.82,52,0,35.75,clear sky
247,Kovin,RS,44.7475,20.9761,34.14,62,86,7.45,overcast clouds
248,Lockhart,US,28.6194,-81.4426,67.93,95,100,8.97,overcast clouds
249,Georgetown,MY,5.4112,100.3354,80.53,81,20,4.61,few clouds
250,Tumpat,MY,6.1978,102.171,82.38,74,20,10.36,few clouds
251,Lumphat,KH,13.4878,106.9816,74.97,56,29,4.59,scattered clouds
252,Flinders,AU,-34.5833,150.8552,72.18,38,33,11.99,scattered clouds
253,Ancud,CL,-41.8697,-73.8203,55.78,83,100,5.86,overcast clouds
254,Talaya,RU,61.3833,152.75,-45.76,99,73,0.94,broken clouds
255,Hendrina,ZA,-26.1588,29.7153,56.03,93,9,2.73,clear sky
256,Itoman,JP,26.1247,127.6694,64.42,68,75,13.8,broken clouds
257,Coahuayana,MX,18.7333,-103.6833,71.58,91,14,0.76,few clouds
258,Hithadhoo,MV,-0.6,73.0833,80.78,74,100,8.99,overcast clouds
259,Jiblah,YE,13.9216,44.1467,54.48,69,4,2.24,clear sky
260,Ust-Tsilma,RU,65.441,52.1498,23.34,94,100,8.08,light snow
261,Tommot,RU,58.9564,126.2925,-35.7,99,100,0.51,overcast clouds
262,Cockburn Town,TC,21.4612,-71.1419,77.5,65,0,8.84,clear sky
263,Inta,RU,66.0317,60.1659,12.0,95,100,6.67,light snow
264,Boden,SE,65.8252,21.6886,6.8,94,100,6.17,overcast clouds
265,Nome,US,64.5011,-165.4064,0.21,90,5,6.4,clear sky
266,Bay City,US,43.5945,-83.8889,30.31,86,0,8.05,clear sky
267,Najran,SA,17.4924,44.1277,56.05,60,0,1.05,clear sky
268,Srednekolymsk,RU,67.45,153.6833,-34.78,99,93,10.29,overcast clouds
269,Petauke,ZM,-14.2426,31.3253,64.89,91,94,2.75,overcast clouds
270,Kodiak,US,57.79,-152.4072,36.93,88,100,3.31,overcast clouds
271,Awjilah,LY,29.1081,21.2869,61.63,74,23,6.29,few clouds
272,Oropoli,HN,13.8167,-86.8167,68.76,77,57,3.94,broken clouds
273,Codrington,AU,-38.2667,141.9667,56.14,59,99,17.74,overcast clouds
274,Kyabram,AU,-36.3167,145.05,59.02,50,92,15.21,overcast clouds
275,Saint George,US,37.1041,-113.5841,41.59,59,0,5.75,clear sky
276,Saint Anthony,US,45.0205,-93.218,34.66,91,100,19.57,moderate rain
277,Rundu,NA,-17.9333,19.7667,66.9,80,62,2.91,broken clouds
278,Puerto Leguizamo,CO,-0.1934,-74.7819,71.51,99,100,2.35,overcast clouds
279,Kukes,AL,42.0769,20.4219,40.68,97,100,1.01,overcast clouds
280,Waipawa,NZ,-41.4122,175.5153,68.4,66,100,7.67,overcast clouds
281,Kawalu,ID,-7.3817,108.2082,81.16,77,91,2.06,overcast clouds
282,Sao Joao Da Barra,BR,-21.6403,-41.0511,73.17,90,100,21.07,overcast clouds
283,Birjand,IR,32.8663,59.2211,32.47,64,0,9.22,clear sky
284,College,US,64.8569,-147.8028,14.9,82,100,1.95,overcast clouds
285,Vilyuysk,RU,63.7553,121.6247,-36.36,100,100,3.85,overcast clouds
286,Port Hawkesbury,CA,45.6169,-61.3485,33.62,96,100,28.99,snow
287,Galle,LK,6.0367,80.217,76.35,83,24,2.57,few clouds
288,Devils Lake,US,48.1128,-98.8651,28.51,94,100,20.71,mist
289,Hashtrud,IR,37.4779,47.0508,39.74,80,100,9.53,overcast clouds
290,Flin Flon,CA,54.7682,-101.865,-1.3,99,62,1.34,broken clouds
291,Cairns,AU,-16.9167,145.7667,94.06,72,43,11.5,scattered clouds
292,Lasa,IT,46.6166,10.7002,27.01,82,96,2.39,overcast clouds
293,Ostrovnoy,RU,68.0531,39.5131,22.89,86,100,14.88,overcast clouds
294,Khorixas,NA,-20.3667,14.9667,70.77,27,99,1.57,overcast clouds
295,Bilibino,RU,68.0546,166.4372,-45.94,100,99,0.45,overcast clouds
296,Carutapera,BR,-1.195,-46.02,77.5,81,8,6.64,clear sky
297,Voh,NC,-20.9667,164.7,84.85,56,2,6.87,clear sky
298,Zenzeli,RU,45.9241,47.0474,28.94,82,88,11.92,overcast clouds
299,Acajutla,SV,13.5928,-89.8275,76.42,81,50,3.76,scattered clouds
300,Beringovskiy,RU,63.05,179.3167,17.29,90,100,7.05,overcast clouds
301,Impfondo,CG,1.6381,18.0667,69.03,91,79,2.57,broken clouds
302,Pafos,CY,34.7667,32.4167,60.58,88,100,0.0,light rain
303,Hobyo,SO,5.3505,48.5268,76.42,70,2,14.99,clear sky
304,Kruisfontein,ZA,-34.0033,24.7314,64.89,95,9,6.6,clear sky
305,Lhokseumawe,ID,5.1801,97.1507,75.06,95,100,8.03,overcast clouds
306,Belaya Gora,RU,68.5333,146.4167,-17.43,96,100,7.74,overcast clouds
307,Monrovia,LR,6.3005,-10.7969,78.53,82,1,2.95,clear sky
308,Kavaratti,IN,10.5669,72.642,81.14,73,85,15.32,overcast clouds
309,Normandin,CA,48.8333,-72.5321,14.31,73,26,11.5,scattered clouds
310,Kalianget,ID,-7.05,113.9333,84.61,68,100,0.56,overcast clouds
311,Mezhdurechensk,RU,53.6942,88.0603,-1.39,100,100,1.01,overcast clouds
312,Rincon De La Victoria,ES,36.7172,-4.2758,67.08,93,53,5.28,light rain
313,Poso,ID,-1.3959,120.7524,79.21,87,99,2.66,light rain
314,Kade,DE,52.3833,12.2667,18.09,92,86,3.98,overcast clouds
315,Leonidovo,RU,49.2833,142.8667,14.13,73,39,8.59,scattered clouds
316,Dwarka,IN,22.2394,68.9678,74.93,71,88,15.79,overcast clouds
317,Dunedin,NZ,-45.8742,170.5036,64.42,69,35,9.57,scattered clouds
318,Half Moon Bay,US,37.4636,-122.4286,51.31,77,0,7.18,clear sky
319,Livingstone,ZM,-17.8419,25.8543,71.06,67,99,3.0,overcast clouds
320,Coquimbo,CL,-29.9533,-71.3436,62.33,94,100,6.91,overcast clouds
321,Tarakan,ID,3.3,117.6333,80.1,89,75,5.75,light rain
322,Blackwater,AU,-23.5833,148.8833,85.93,51,85,3.8,overcast clouds
323,Padang,ID,-0.9492,100.3543,75.25,93,100,1.95,overcast clouds
324,Shuyskoye,RU,59.3736,41.0305,16.86,87,80,11.68,broken clouds
325,Sao Filipe,CV,14.8961,-24.4956,78.26,60,1,6.6,clear sky
326,San Carlos De Bariloche,AR,-41.1456,-71.3082,56.95,62,75,17.27,broken clouds
327,Marsh Harbour,BS,26.5412,-77.0636,71.8,66,86,19.46,overcast clouds
328,Singaparna,ID,-7.3515,108.111,80.58,77,84,2.35,broken clouds
329,Chake Chake,TZ,-5.2459,39.7666,76.17,86,9,4.38,clear sky
330,Qarayeri,AZ,40.7886,46.3066,40.08,81,75,6.91,broken clouds
331,Pueblo,US,38.2545,-104.6091,24.57,69,100,1.99,overcast clouds
332,Pangoa,PE,-12.1167,-73.0,67.87,99,100,2.66,overcast clouds
333,Biak,ID,-0.9131,122.8766,78.91,82,92,3.87,overcast clouds
334,Chastyye,RU,57.2888,54.9728,-2.69,91,11,3.96,few clouds
335,Yei,SS,4.095,30.6779,66.11,90,99,3.38,overcast clouds
336,Shakawe,BW,-18.3667,21.85,70.59,69,27,2.3,scattered clouds
337,Kyritz,DE,52.9421,12.397,19.81,85,8,6.13,clear sky
338,Ambulu,ID,-8.345,113.6058,84.34,71,91,1.41,overcast clouds
339,Zverinogolovskoye,RU,54.4586,64.8542,3.56,96,49,5.46,scattered clouds
340,Fort-Shevchenko,KZ,44.5086,50.263,35.98,66,100,10.89,overcast clouds
341,Turinskaya Sloboda,RU,57.6232,64.3858,-2.9,99,81,6.11,broken clouds
342,Santa Lucia,ES,27.9117,-15.5407,64.76,83,0,1.14,clear sky
343,Adrar,MR,20.5022,-10.0711,72.12,35,0,8.59,clear sky
344,Ambon,ID,-3.6954,128.1814,87.94,66,40,4.61,scattered clouds
345,Ajuchitlan,MX,20.7167,-100.0167,61.21,36,6,3.58,clear sky
346,Banes,CU,20.9625,-75.7186,72.9,75,1,7.27,clear sky
347,Susangerd,IR,31.5608,48.1831,63.36,41,100,9.71,overcast clouds
348,Steamboat Springs,US,40.485,-106.8317,16.93,90,100,0.0,light snow
349,Bosaso,SO,11.2842,49.1816,71.28,76,3,2.53,clear sky
350,Weinan,CN,34.5036,109.5089,33.91,29,49,4.23,scattered clouds
351,Yerbogachen,RU,61.2767,108.0108,-18.11,97,100,5.59,overcast clouds
352,Caravelas,BR,-17.7125,-39.2481,74.43,97,100,4.97,moderate rain
353,Diego De Almagro,CL,-26.3667,-70.05,69.03,40,0,1.97,clear sky
354,La Joya,MX,18.6667,-99.4667,69.39,51,47,5.61,scattered clouds
355,San Matias,BO,-16.3667,-58.4,77.13,77,78,3.76,broken clouds
356,Roma,US,43.2128,-75.4557,27.95,86,100,4.61,overcast clouds
357,Fairbanks,US,64.8378,-147.7164,8.6,84,100,0.0,overcast clouds
358,Altamira,BR,-3.2033,-52.2064,76.96,76,79,2.21,broken clouds
359,Nuevo Progreso,MX,23.1667,-97.95,76.46,69,8,1.99,clear sky
360,Kalangala,UG,-0.3089,32.225,67.35,81,100,11.32,light rain
361,Durban,ZA,-29.8579,31.0292,74.32,95,58,1.99,broken clouds
362,Sao Felix Do Xingu,BR,-6.6447,-51.995,71.06,96,75,0.51,broken clouds
363,Sioux Lookout,CA,50.1001,-91.917,30.27,80,100,6.91,overcast clouds
364,Geraldton,AU,-28.7667,114.6,81.01,34,0,14.97,clear sky
365,Umm Lajj,SA,25.0213,37.2685,72.59,52,0,4.36,clear sky
366,Taunggyi,MM,20.7833,97.0333,61.79,75,23,2.06,few clouds
367,Sillanwali,PK,31.8261,72.5398,54.23,37,0,6.44,clear sky
368,Syracuse,IT,37.0881,15.2792,60.17,83,59,4.12,broken clouds
369,Fare,PF,-16.7,-151.0167,80.11,76,100,12.71,overcast clouds
370,Avera,US,33.194,-82.5271,49.51,66,39,7.99,scattered clouds
371,Nanchong,CN,30.7951,106.0847,47.75,84,100,4.92,overcast clouds
372,Faya,SA,18.3851,42.4509,51.91,68,0,0.96,clear sky
373,Olinda,BR,-8.0089,-34.8553,80.33,74,75,9.22,broken clouds
374,Yanam,IN,16.7333,82.2167,74.59,78,94,1.9,overcast clouds
375,Sur,OM,22.5667,59.5289,72.7,54,0,7.52,clear sky
376,Tual,ID,-5.6667,132.75,83.48,69,100,4.65,overcast clouds
377,Karratha,AU,-20.7377,116.8463,95.77,22,80,3.58,broken clouds
378,West Bay,KY,19.3667,-81.4167,78.01,78,20,8.05,few clouds
379,Gigmoto,PH,13.7796,124.39,82.29,83,83,7.72,broken clouds
380,Fukue,JP,32.6881,128.8419,44.96,61,75,16.11,broken clouds
381,Wadi Musa,JO,30.3222,35.4793,49.05,68,100,2.48,overcast clouds
382,Rawson,AR,-43.3002,-65.1023,62.83,58,57,4.79,broken clouds
383,Durango,MX,24.8333,-104.8333,48.88,42,25,8.97,scattered clouds
384,Pekan,MY,3.4836,103.3996,76.96,89,99,4.74,light rain
385,Rio Grande,BR,-32.035,-52.0986,64.36,63,0,8.61,clear sky
386,Jizan,SA,17.3333,42.6667,74.34,76,2,2.77,clear sky
387,Palmeiras De Goias,BR,-16.805,-49.9258,69.42,98,100,4.14,moderate rain
388,Raseiniai,LT,55.3736,23.1217,20.68,95,98,7.85,overcast clouds
389,Yuancheng,CN,36.652,107.7896,25.25,28,0,7.67,clear sky
390,Tallahassee,US,30.4383,-84.2807,62.8,83,67,1.01,broken clouds
391,Tiznit,MA,29.5833,-9.5,64.9,67,0,1.99,clear sky
392,Wiwili,NI,13.6268,-85.8254,70.38,80,42,3.53,scattered clouds
393,Longyearbyen,SJ,78.2186,15.6401,-9.69,81,49,6.46,scattered clouds
394,Port Hedland,AU,-20.3167,118.5667,91.45,62,40,16.11,scattered clouds
395,Sorland,NO,67.667,12.6934,33.66,60,100,18.07,overcast clouds
396,Sao Miguel Do Araguaia,BR,-13.275,-50.1628,78.1,70,100,3.69,heavy intensity rain
397,Dolores,AR,-36.3132,-57.6792,62.2,48,0,12.64,clear sky
398,Valparaiso,CL,-33.0393,-71.6273,64.04,63,0,2.3,clear sky
399,Vardo,NO,70.3705,31.1107,28.38,100,100,17.27,snow
400,Teguajinal,HN,15.3667,-86.6,64.4,89,89,2.48,overcast clouds
401,San Jeronimo,PE,-11.9472,-75.2829,49.01,86,100,4.5,overcast clouds
402,Maple Creek,CA,49.9168,-109.4848,21.61,84,6,2.3,clear sky
403,Kieta,PG,-6.2167,155.6333,82.54,79,81,3.02,moderate rain
404,Khandyga,RU,62.6667,135.6,-53.54,99,53,0.47,broken clouds
405,Dingle,PH,10.9995,122.6711,83.35,78,73,10.8,broken clouds
406,Omboue,GA,-1.5746,9.2618,74.59,90,96,2.77,overcast clouds
407,Carmen,MX,18.6333,-91.8333,77.74,77,12,8.77,few clouds
408,Clarence Town,AU,-32.5833,151.7833,77.14,21,83,15.52,broken clouds
409,Angren,UZ,41.0167,70.1436,36.55,53,100,7.0,overcast clouds
410,Smithers,CA,54.7804,-127.1743,23.32,86,100,6.91,overcast clouds
411,Vershino-Shakhtaminskiy,RU,51.3012,117.8868,-20.61,79,19,3.18,few clouds
412,Karasjok,NO,69.4719,25.5112,14.79,96,100,4.7,light snow
413,Rio De Janeiro,BR,-22.9028,-43.2075,74.95,80,100,8.05,overcast clouds
414,Waynesboro,US,38.0685,-78.8895,29.77,90,0,0.0,clear sky
415,Marsa Matruh,EG,31.3525,27.2453,61.0,67,0,9.22,clear sky
416,Gao,ML,16.6362,1.637,68.22,12,1,10.98,clear sky
417,Leiyang,CN,26.4024,112.8591,48.79,48,0,6.15,clear sky
418,Zapolyarnyy,RU,69.4154,30.8136,16.88,97,100,4.0,overcast clouds
419,Saint-Joseph,RE,-21.3667,55.6167,71.98,79,26,10.67,scattered clouds
420,Buenavista,PH,8.9769,125.4089,83.86,71,99,4.88,overcast clouds
421,Davila,PH,18.4726,120.5763,84.18,71,55,13.53,broken clouds
422,Luneville,FR,48.6,6.5,28.78,63,100,3.11,overcast clouds
423,Deputatskiy,RU,69.3,139.9,-34.47,97,89,6.49,overcast clouds
424,Lavrentiya,RU,65.5833,-171.0,-0.71,74,29,5.64,scattered clouds
425,Pangody,RU,65.85,74.4859,-3.44,90,100,12.41,overcast clouds
426,Myitkyina,MM,25.3833,97.4,65.41,59,2,2.77,clear sky
427,Port Augusta,AU,-32.5,137.7667,67.84,35,0,16.13,clear sky
428,Calderitas,MX,18.55,-88.25,75.76,87,100,7.78,overcast clouds
429,Asosa,ET,10.0667,34.5333,62.26,43,6,3.36,clear sky
430,Manama,BH,26.2154,50.5832,66.18,77,0,0.0,clear sky
431,Vostok,RU,46.4856,135.8833,-6.12,90,100,10.71,overcast clouds
432,Cabo Rojo,PR,18.0866,-67.1457,73.96,87,18,1.01,few clouds
433,Natal,BR,-5.795,-35.2094,79.45,78,20,10.36,few clouds
434,Rio Bueno,CL,-40.3167,-72.9667,60.94,78,100,4.27,overcast clouds
435,Karaton,ID,-6.3424,106.1045,81.72,74,100,6.22,overcast clouds
436,Aasiaat,GL,68.7098,-52.8699,14.22,87,99,9.01,overcast clouds
437,General Pico,AR,-35.6566,-63.7568,69.94,24,0,10.04,clear sky
438,Nouakchott,MR,18.0858,-15.9785,73.33,30,0,10.58,clear sky
439,Vanavara,RU,60.34,102.2797,-18.47,97,100,4.52,overcast clouds
440,Tawang,IN,27.5833,91.8667,43.27,52,31,0.96,scattered clouds
441,Khuzdar,PK,27.7384,66.6434,48.42,57,0,3.49,clear sky
442,Umm Kaddadah,SD,13.6017,26.6876,62.2,19,100,11.27,overcast clouds
443,Rio Gallegos,AR,-51.6226,-69.2181,51.85,30,75,16.11,broken clouds
444,Kloulklubed,PW,7.0419,134.2556,83.75,75,100,17.09,overcast clouds
445,San Jose,US,37.3394,-121.895,50.4,69,0,1.99,clear sky
446,Katangli,RU,51.7102,143.2326,13.53,85,88,18.99,overcast clouds
447,Paraiso,CR,9.8383,-83.8656,65.26,91,80,3.09,broken clouds
448,Chicama,PE,-7.8447,-79.1469,68.54,72,100,2.95,overcast clouds
449,Shache,CN,38.4167,77.2406,26.71,48,68,6.58,broken clouds
450,Hami,CN,42.8,93.45,22.44,37,100,1.25,overcast clouds
451,Bombay,IN,19.0144,72.8479,82.38,65,40,6.91,haze
452,Bam,IR,29.106,58.357,45.14,41,0,2.04,clear sky
453,Baiyin,CN,36.5583,104.2081,21.74,24,0,1.36,clear sky
454,Mecca,SA,21.4267,39.8261,73.29,71,5,3.11,clear sky
455,Skjervoy,NO,70.0311,20.9714,12.2,71,100,10.2,overcast clouds
456,Guanaja,HN,16.4,-85.9,80.71,79,100,23.73,overcast clouds
457,Makarov,RU,48.6333,142.8,16.57,78,42,17.47,scattered clouds
458,Scarborough,GB,54.2797,-0.4044,29.91,90,66,7.0,broken clouds
459,Palmer,US,42.1584,-72.3287,31.44,64,0,6.91,clear sky
460,Menongue,AO,-14.6585,17.691,61.74,98,100,3.71,overcast clouds
461,Kaseda,JP,31.4167,130.3167,50.94,70,98,26.6,overcast clouds
462,Tomatlan,MX,19.9333,-105.25,67.84,71,80,2.33,broken clouds
463,Cayenne,GF,4.9333,-52.3333,77.04,94,40,3.44,scattered clouds
464,Rovinj,HR,45.08,13.64,41.29,80,100,5.53,overcast clouds
465,Grindavik,IS,63.8424,-22.4338,21.67,73,9,9.22,clear sky
466,Nova Venecia,BR,-18.7106,-40.4006,74.98,95,100,2.19,moderate rain
467,Tianpeng,CN,30.9866,103.9393,45.07,68,97,4.5,overcast clouds
468,Callaway,US,30.153,-85.5699,66.97,86,100,4.0,overcast clouds
469,Kralendijk,BQ,12.15,-68.2667,80.04,73,49,17.78,scattered clouds
470,Sesheke,ZM,-17.4759,24.2968,67.98,77,8,5.39,clear sky
471,Shagonar,RU,51.5333,92.8,-4.72,97,100,1.28,overcast clouds
472,Maragogi,BR,-9.0122,-35.2225,77.61,78,6,9.33,clear sky
473,Sistranda,NO,63.7256,8.834,21.16,57,100,9.69,overcast clouds
474,Dharchula,IN,29.85,80.5333,52.74,14,0,8.95,clear sky
475,Kyren,RU,51.6828,102.1408,-1.95,80,99,0.63,overcast clouds
476,Nyurba,RU,63.2842,118.3319,-14.33,98,100,3.69,overcast clouds
477,Pirai,BR,-22.6292,-43.8981,65.28,96,100,6.49,overcast clouds
478,Zyryanka,RU,65.75,150.85,-38.43,92,22,9.55,few clouds
479,Gander,CA,48.9682,-54.5906,37.53,93,100,31.07,light intensity shower rain
480,Tautira,PF,-17.7333,-149.15,79.25,79,100,17.43,light rain
481,Newport Beach,US,33.6189,-117.9289,55.09,78,0,1.99,clear sky
482,Muroran,JP,42.3172,140.9881,29.8,72,100,23.91,light snow
483,Coihaique,CL,-45.5752,-72.0662,51.75,71,100,11.5,light rain
484,Shenjiamen,CN,29.9576,122.298,47.03,54,98,20.62,overcast clouds
485,Manakara,MG,-22.1333,48.0167,72.61,87,100,5.59,light rain
486,Pioner,RU,55.3166,85.9508,-9.96,83,75,11.18,broken clouds
487,Bojnurd,IR,37.4747,57.329,37.35,60,20,4.61,few clouds
488,Taywarah,AF,33.35,64.4167,29.16,36,1,1.57,clear sky
489,Brae,GB,60.3964,-1.353,34.66,68,100,27.92,snow
490,Buchlovice,CZ,49.0863,17.3385,20.68,86,83,3.51,broken clouds
491,Bonavista,CA,48.6499,-53.1147,38.17,87,100,32.79,overcast clouds
492,Linda,US,39.1277,-121.5508,46.62,80,5,1.01,clear sky
493,Tuatapere,NZ,-46.1333,167.6833,68.52,61,30,5.21,scattered clouds
494,Sault Sainte Marie,CA,46.5168,-84.3333,22.82,68,75,9.22,broken clouds
495,Gilgit,PK,35.9221,74.3087,35.02,50,100,4.47,overcast clouds
496,Antofagasta,CL,-23.65,-70.4,67.28,68,32,2.89,scattered clouds
497,Ponta Delgada,PT,37.7333,-25.6667,59.72,77,40,28.77,light rain
498,Adre,TD,13.4667,22.2,64.4,16,100,11.74,overcast clouds
499,Aklavik,CA,68.2191,-135.0107,-13.22,88,1,4.09,clear sky
500,Kalemie,CD,-5.9475,29.1947,67.01,93,93,9.55,light rain
501,Boiro,ES,42.65,-8.9,59.54,82,95,14.63,overcast clouds
502,Amahai,ID,-3.3333,128.9167,85.68,66,23,3.65,few clouds
503,Hambantota,LK,6.1241,81.1185,73.74,100,20,0.0,few clouds
504,Iqaluit,CA,63.7506,-68.5145,15.53,92,75,2.3,broken clouds
505,Nhulunbuy,AU,-12.2333,136.7667,92.01,55,40,8.05,scattered clouds
506,Krasnoborsk,RU,61.5598,45.934,21.06,83,64,11.52,broken clouds
507,Padre Paraiso,BR,-17.0742,-41.4844,70.52,91,100,5.35,moderate rain
508,Maine-Soroa,NE,13.2114,12.0241,65.98,15,61,8.95,broken clouds
509,Muroto,JP,33.2833,134.15,52.14,56,6,24.38,clear sky
510,Byron Bay,AU,-28.65,153.6167,84.7,50,66,5.66,broken clouds
511,Liverpool,GB,53.4106,-2.9779,24.82,94,18,3.87,few clouds
512,San Rafael Del Sur,NI,11.8485,-86.4384,77.97,75,90,10.04,overcast clouds
513,Sakete,BJ,6.7362,2.6587,74.84,87,100,3.49,light rain
514,Cortes,ES,41.9395,-1.4396,50.05,93,100,6.69,overcast clouds
515,Praya,CV,14.9215,-23.5087,75.74,53,0,9.22,clear sky
516,Caluquembe,AO,-13.7833,14.6833,59.83,82,100,1.54,overcast clouds
517,Roblin,CA,51.23,-101.3565,14.72,96,98,5.26,overcast clouds
518,Kysyl-Syr,RU,63.8986,122.7617,-40.77,100,100,4.29,overcast clouds
519,Bocana De Paiwas,NI,12.7857,-85.1227,69.58,93,7,4.41,clear sky
520,San Rafael,AR,-34.6177,-68.3301,79.93,13,0,9.28,clear sky
521,Korla,CN,41.7597,86.1469,17.19,75,3,5.23,clear sky
522,Usinsk,RU,65.9939,57.5281,13.66,94,100,17.76,light snow
523,Black River,JM,18.0264,-77.8487,74.19,83,43,4.12,scattered clouds
524,Rasskazovo,RU,52.6714,41.9033,24.66,94,100,24.09,snow
525,Felipe Carrillo Puerto,MX,19.5833,-88.05,70.74,94,80,2.66,broken clouds
526,Barranca,PE,-10.75,-77.7667,69.06,79,100,3.36,overcast clouds
527,Asfi,MA,32.2994,-9.2372,66.4,84,28,17.63,scattered clouds
528,Kabalo,CD,-6.05,26.9167,66.74,99,100,2.42,light rain
529,Mabaruma,GY,8.2,-59.7833,72.27,98,62,3.02,broken clouds
530,Namatanai,PG,-3.6667,152.4333,83.91,72,47,4.56,light rain
531,Clyde River,CA,70.4692,-68.5914,14.23,73,100,4.61,overcast clouds
532,La Rioja,ES,42.25,-2.5,38.98,87,87,9.53,overcast clouds
533,Cavalcante,BR,-13.7975,-47.4583,68.65,91,94,1.57,overcast clouds
534,Jumla,NP,29.2747,82.1838,40.59,13,0,5.23,clear sky
535,Ayan,RU,56.45,138.1667,-14.24,71,100,17.63,overcast clouds
536,Constantine,DZ,36.365,6.6147,56.61,76,40,4.61,scattered clouds
537,Tomari,RU,47.7658,142.0683,15.84,74,100,21.81,overcast clouds
538,Phan Thiet,VN,10.9333,108.1,76.51,70,99,1.16,overcast clouds
539,Labytnangi,RU,66.6572,66.4183,-1.37,97,100,7.36,overcast clouds
540,Mehriz,IR,31.5917,54.4318,39.7,38,79,2.42,broken clouds
541,Goundam,ML,16.4145,-3.6708,69.71,11,0,7.4,clear sky
542,Puerto Madryn,AR,-42.7692,-65.0385,65.26,57,37,6.04,scattered clouds
543,Lima,PE,-12.0432,-77.0282,70.9,79,20,12.66,few clouds
544,Nizwa,OM,22.9333,57.5333,63.48,69,0,3.29,clear sky
545,Havre-Saint-Pierre,CA,50.2334,-63.5986,37.76,75,100,28.77,overcast clouds
546,Montpellier,FR,43.6109,3.8772,46.56,99,100,13.8,overcast clouds
547,Bria,CF,6.5423,21.9863,68.92,65,47,3.44,scattered clouds
548,Seydi,TM,39.4816,62.9137,39.52,64,100,12.55,overcast clouds
549,La Rochelle,FR,46.1667,-1.15,44.67,100,100,11.5,fog
550,Jacareacanga,BR,-6.2222,-57.7528,71.13,100,100,0.47,light rain
551,Santa Barbara,US,34.7333,-120.0343,46.83,72,0,6.91,clear sky
552,Maniitsoq,GL,65.4167,-52.9,19.63,77,92,8.81,overcast clouds
553,Kemijarvi,FI,66.7131,27.4306,12.96,95,100,4.63,overcast clouds
554,Sabang,ID,5.8933,95.3214,79.66,84,100,22.15,moderate rain
555,Cartagena,CO,10.3997,-75.5144,78.42,89,0,13.8,clear sky
556,Luanda,AO,-8.8368,13.2343,78.8,78,75,4.61,broken clouds
557,Santa Cruz Cabralia,BR,-16.2781,-39.0247,79.03,83,0,13.8,clear sky
558,Boa Vista,BR,2.8197,-60.6733,78.78,89,0,2.3,clear sky
559,Botwood,CA,49.1499,-55.3482,38.89,80,100,18.84,overcast clouds
560,Billings,US,45.7833,-108.5007,7.23,97,79,2.95,broken clouds
561,Raga,SS,8.4596,25.678,69.78,25,13,4.79,few clouds
562,Carballo,ES,43.213,-8.691,58.77,88,98,10.92,overcast clouds
563,Ardakan,IR,32.31,54.0175,46.47,37,98,0.76,overcast clouds
564,Egvekinot,RU,66.3167,-179.1667,-7.83,73,100,2.75,overcast clouds
565,Pipri,IN,19.8,75.5333,72.18,88,40,3.44,haze
566,Shubarshi,KZ,48.5872,57.1869,14.72,73,3,9.64,clear sky
567,Ugoofaaru,MV,5.6667,73.0,80.65,77,100,8.46,overcast clouds
568,Makinsk,KZ,52.6292,70.4169,-7.76,97,54,6.29,broken clouds
569,Hirara,JP,24.8,125.2833,66.47,68,75,24.16,broken clouds
570,Fethiye,TR,36.6217,29.1164,58.87,86,100,5.97,overcast clouds
571,Malatya,TR,38.5,38.0,41.05,93,100,0.0,overcast clouds
572,Plettenberg Bay,ZA,-34.0527,23.3716,65.43,86,2,3.56,clear sky
573,Hovd,MN,48.0056,91.6419,-0.22,79,93,2.26,overcast clouds
574,Buritis,BR,-15.6178,-46.4233,71.58,89,100,3.51,overcast clouds
575,Chincha Alta,PE,-13.4099,-76.1323,68.59,82,37,2.37,scattered clouds
576,Sept-Iles,CA,50.2001,-66.3821,32.52,86,100,19.57,snow
577,Gravdal,NO,68.1214,13.5031,29.86,66,100,12.1,overcast clouds
578,Amealco,MX,20.1833,-100.15,49.66,60,8,6.02,clear sky
579,Pandan,PH,14.0453,124.1694,81.73,84,89,9.13,overcast clouds
580,Taldan,RU,53.6667,124.8,-20.34,80,60,6.91,broken clouds
581,Linxia,CN,35.6003,103.2064,24.66,27,0,2.15,clear sky
582,Kathmandu,NP,27.7167,85.3167,46.62,87,75,2.3,mist
583,Poselki,RU,53.1324,46.5031,19.02,66,0,16.55,clear sky
584,Trairi,BR,-3.2778,-39.2689,78.39,79,72,8.03,broken clouds
585,San Vicente De Canete,PE,-13.0751,-76.3835,69.01,81,30,3.09,scattered clouds
586,Kutum,SD,14.2,24.6667,57.0,22,100,5.53,overcast clouds
587,Luau,AO,-10.7073,22.2247,62.42,99,100,3.02,light rain
588,Akranes,IS,64.3218,-22.0749,21.76,64,25,9.95,scattered clouds
589,Gubkinskiy,RU,64.434,76.5026,-6.48,85,100,11.32,overcast clouds
590,Leshukonskoye,RU,64.8989,45.7622,27.05,93,100,9.35,overcast clouds
591,Shihezi,CN,44.3,86.0333,12.11,88,100,1.72,overcast clouds
592,Tokur,RU,53.1333,132.9,-17.59,90,100,6.15,overcast clouds
593,Palkan,PH,6.2964,125.0317,77.22,66,98,4.47,overcast clouds
594,Mitsamiouli,KM,-11.3847,43.2844,79.63,80,19,9.66,light rain
595,Derzhavinsk,KZ,51.1,66.3167,5.83,93,32,8.66,scattered clouds
596,Gambela,ET,8.25,34.5833,74.8,64,22,2.71,few clouds
597,Van,TR,38.4924,43.3831,36.52,86,85,0.4,overcast clouds
598,Puerto Del Rosario,ES,28.5004,-13.8627,65.95,82,0,5.75,clear sky
599,Ixtapa,MX,20.7,-105.2,65.71,75,96,2.73,overcast clouds
600,Ust-Nera,RU,64.5667,143.2,-52.06,96,70,1.41,broken clouds
601,Port Moresby,PG,-9.4431,147.1797,87.22,74,40,13.8,scattered clouds
602,Galveston,US,29.3669,-94.9669,76.17,90,99,1.99,overcast clouds
603,Kargopol,RU,61.5071,38.9456,26.26,98,100,4.34,light snow
604,Buala,SB,-8.145,159.5921,83.21,75,43,1.68,moderate rain
605,Jiazi,CN,22.8779,116.067,52.57,83,100,11.43,overcast clouds
606,Merauke,ID,-8.4667,140.3333,79.34,78,100,1.52,overcast clouds
607,Maumere,ID,-8.6199,122.2111,86.02,65,68,1.16,broken clouds
608,Batetskiy,RU,58.6461,30.3027,19.9,91,98,7.07,overcast clouds
609,Shingu,JP,33.7333,135.9833,48.42,65,50,17.31,scattered clouds
610,Imeni Stepana Razina,RU,54.8932,44.2963,20.05,76,0,17.43,clear sky
611,Upata,VE,8.0086,-62.3989,69.6,95,16,3.49,few clouds
612,Xixiang,CN,35.1628,112.865,34.2,22,0,3.0,clear sky
613,Agirish,RU,61.9247,63.0231,3.02,96,100,9.1,overcast clouds
614,Zhezkazgan,KZ,47.8043,67.7144,1.38,78,0,6.71,clear sky
615,Santa Rosa,PH,14.3122,121.1114,86.11,82,30,11.34,scattered clouds
616,Bhagwantnagar,IN,26.2333,80.75,57.85,42,0,7.45,clear sky
617,Templin,DE,53.1186,13.5022,24.19,94,46,5.66,scattered clouds
618,Portland,US,45.5234,-122.6762,41.83,89,100,1.01,overcast clouds
619,Houma,US,29.5958,-90.7195,73.99,92,100,7.0,overcast clouds
620,Halifax,CA,44.6453,-63.5724,24.69,67,22,13.0,few clouds
621,Necochea,AR,-38.5473,-58.7368,61.23,51,0,6.13,clear sky
622,Swan River,CA,52.1058,-101.2676,21.09,93,96,6.91,overcast clouds
623,Mezen,RU,65.8522,44.24,25.95,94,100,9.91,overcast clouds
624,Salalah,OM,17.0151,54.0924,69.91,41,0,8.28,clear sky
625,Colares,PT,38.7992,-9.4469,62.76,94,100,20.0,overcast clouds
626,Caceres,ES,39.522,-6.3748,56.17,86,100,10.51,overcast clouds
627,Nayoro,JP,44.3506,142.4578,22.24,87,97,11.18,light snow
628,Zhangye,CN,38.9342,100.4517,21.4,23,8,9.48,clear sky
629,Bageshwar,IN,29.85,79.7667,49.59,22,0,3.31,clear sky
630,Praia Da Vitoria,PT,38.7333,-27.0667,55.76,88,40,25.12,light rain
631,Vernon,CA,50.2581,-119.2691,30.81,80,32,1.14,scattered clouds
632,Whitehorse,CA,60.7161,-135.0538,16.57,79,75,16.11,broken clouds
633,Sibolga,ID,1.7427,98.7792,74.25,96,100,4.88,light rain
634,Parkes,AU,-33.1333,148.1833,64.47,26,2,16.17,clear sky
635,La Cruz,MX,23.9167,-106.9,64.58,70,1,7.67,clear sky
636,Mount Isa,AU,-20.7333,139.5,89.37,10,35,17.27,scattered clouds
637,Monok,HU,48.2167,21.15,26.4,84,17,3.22,few clouds
638,Presidencia Roque Saenz Pena,AR,-26.7852,-60.4388,71.55,24,0,5.68,clear sky
639,Emba,KZ,48.8264,58.1442,15.87,66,0,11.86,clear sky
640,Foumban,CM,5.7291,10.9001,62.69,40,2,3.74,clear sky
641,Vallenar,CL,-28.5708,-70.7581,71.94,44,0,3.76,clear sky
642,Zabol,AF,32.25,67.25,34.48,43,55,3.4,broken clouds
643,Ternate,ID,0.8,127.4,83.21,73,80,5.77,broken clouds
644,Arlit,NE,18.7369,7.3853,66.49,23,39,3.74,scattered clouds
645,Goure,NE,13.9835,10.2704,63.45,14,36,8.23,scattered clouds
646,Dauriya,RU,49.9333,116.8667,-27.27,85,5,2.24,clear sky
647,Kibondo,TZ,-3.5864,30.7203,59.86,92,100,2.1,overcast clouds
648,Corowa,AU,-36.0333,146.3833,62.58,68,67,17.31,broken clouds
649,Winfield,US,37.2398,-96.9956,44.51,67,0,3.0,clear sky
650,Chernyshevskiy,RU,63.0128,112.4714,-24.03,100,100,3.29,overcast clouds
651,Erdenet,MN,49.0333,104.0833,-8.63,78,98,5.37,overcast clouds
652,West Odessa,US,31.8424,-102.4988,51.21,34,0,13.51,clear sky
653,Acapulco,MX,16.8634,-99.8901,76.1,81,50,6.96,scattered clouds
654,Vidim,RU,56.4088,103.1106,-27.02,100,66,2.44,broken clouds
655,Puerto Escondido,MX,15.85,-97.0667,76.96,81,35,3.42,scattered clouds
656,Chingirlau,KZ,51.095,54.0814,16.56,66,0,13.94,clear sky
657,Aden,YE,12.7794,45.0367,77.29,70,35,14.7,scattered clouds
658,Motihari,IN,26.65,84.9167,59.27,45,0,2.44,clear sky
659,Erzin,TR,36.9559,36.2,54.59,72,100,7.63,overcast clouds
